{"generated_at":"2026-07-20T07:45:26Z","source":"overpass","count":30,"poi":[{"id":"n13092281377","name":"Gjörvidalslaug","kind":"pool","subkind":"swimming_pool","lat":65.79468,"lng":-22.52639,"cuisine":null,"hours":"24/7","website":null,"phone":null,"brand":null,"town":null},{"id":"n1787213347","name":"Gamla sundlaug","kind":"pool","subkind":"swimming_pool","lat":65.92298,"lng":-22.42338,"cuisine":null,"hours":null,"website":null,"phone":null,"brand":null,"town":null},{"id":"n1787292571","name":"Galtahryggjarlaug","kind":"pool","subkind":"swimming_pool","lat":65.83971,"lng":-22.67751,"cuisine":null,"hours":null,"website":null,"phone":null,"brand":null,"town":null},{"id":"n1787486017","name":"Hörgshlíðarlaug","kind":"pool","subkind":"swimming_pool","lat":65.83105,"lng":-22.62887,"cuisine":null,"hours":null,"website":null,"phone":null,"brand":null,"town":null},{"id":"n1787527606","name":"Keldulaug","kind":"pool","subkind":"swimming_pool","lat":65.89039,"lng":-22.5829,"cuisine":null,"hours":null,"website":null,"phone":null,"brand":null,"town":null},{"id":"n1792418190","name":"Dynjandislaug","kind":"pool","subkind":"swimming_pool","lat":65.73466,"lng":-23.20731,"cuisine":null,"hours":null,"website":null,"phone":null,"brand":null,"town":null},{"id":"n1864311460","name":"Sundhöllin á Ísafirði","kind":"pool","subkind":"swimming_pool","lat":66.07359,"lng":-23.11719,"cuisine":null,"hours":null,"website":null,"phone":null,"brand":null,"town":null},{"id":"n318923201","name":"Jaðarsbakkalaug","kind":"pool","subkind":"swimming_pool","lat":64.3186,"lng":-22.05902,"cuisine":null,"hours":"Mo-Fr 06:30-21:00; Sa-Su 09:00-18:00","website":"https://www.akranes.is/pages/thjonusta/ithrottir-og-tomstundir/ithrottamannvirki/sundlaugar/","phone":null,"brand":null,"town":null},{"id":"n319128635","name":"Bjarnalaug","kind":"pool","subkind":"swimming_pool","lat":64.31744,"lng":-22.08606,"cuisine":null,"hours":"Sep-May Sa 10:00-13:00; Jun-Aug off","website":null,"phone":"+354 433 1130","brand":null,"town":null},{"id":"n319959929","name":"Glerárlaug","kind":"pool","subkind":"swimming_pool","lat":65.68935,"lng":-18.11805,"cuisine":null,"hours":null,"website":null,"phone":null,"brand":null,"town":null},{"id":"n3729907832","name":"Hot tub","kind":"pool","subkind":"swimming_pool","lat":64.78765,"lng":-21.5085,"cuisine":null,"hours":null,"website":null,"phone":null,"brand":null,"town":null},{"id":"n5145250891","name":"Djúpidalur","kind":"pool","subkind":"swimming_pool","lat":65.58464,"lng":-22.28317,"cuisine":null,"hours":null,"website":null,"phone":null,"brand":null,"town":null},{"id":"n6635871222","name":"Sundlaugin á Þingeyri","kind":"pool","subkind":"swimming_pool","lat":65.88058,"lng":-23.49272,"cuisine":null,"hours":null,"website":null,"phone":null,"brand":null,"town":null},{"id":"w101578736","name":"Ölduselslaug","kind":"pool","subkind":"swimming_pool","lat":64.09963,"lng":-21.84812,"cuisine":null,"hours":null,"website":null,"phone":null,"brand":null,"town":null},{"id":"w1033769574","name":"Nauteyrarlaug","kind":"pool","subkind":"swimming_pool","lat":65.91718,"lng":-22.34179,"cuisine":null,"hours":null,"website":null,"phone":null,"brand":null,"town":null},{"id":"w167921265","name":"Reykjafjarðarlaug","kind":"pool","subkind":"swimming_pool","lat":65.62313,"lng":-23.46896,"cuisine":null,"hours":null,"website":null,"phone":null,"brand":null,"town":null},{"id":"w169339802","name":"Suðurbæjarlaug","kind":"pool","subkind":"swimming_pool","lat":64.06009,"lng":-21.96196,"cuisine":null,"hours":null,"website":null,"phone":null,"brand":null,"town":null},{"id":"w194100953","name":"Ásgarðslaug","kind":"pool","subkind":"swimming_pool","lat":64.08818,"lng":-21.92929,"cuisine":null,"hours":null,"website":null,"phone":null,"brand":null,"town":null},{"id":"w220545574","name":"Breiðholtsskólalaug","kind":"pool","subkind":"swimming_pool","lat":64.1073,"lng":-21.8365,"cuisine":null,"hours":null,"website":null,"phone":null,"brand":null,"town":null},{"id":"w26118679","name":"Hallormsstaðaskóli sundlaug","kind":"pool","subkind":"swimming_pool","lat":65.09242,"lng":-14.74037,"cuisine":null,"hours":null,"website":null,"phone":null,"brand":null,"town":null},{"id":"w298276918","name":"Jarlslaug","kind":"pool","subkind":"swimming_pool","lat":65.8822,"lng":-19.73628,"cuisine":null,"hours":null,"website":null,"phone":null,"brand":null,"town":null},{"id":"w393225257","name":"Hotpot Laugarfell","kind":"pool","subkind":"swimming_pool","lat":64.88536,"lng":-15.35216,"cuisine":null,"hours":null,"website":null,"phone":null,"brand":null,"town":null},{"id":"w485357125","name":"Sundlaugin Grenivík","kind":"pool","subkind":"swimming_pool","lat":65.94899,"lng":-18.17315,"cuisine":null,"hours":null,"website":null,"phone":null,"brand":null,"town":null},{"id":"w507776992","name":"Heiðarbær","kind":"pool","subkind":"swimming_pool","lat":65.88841,"lng":-17.31996,"cuisine":null,"hours":"10:00-22:00","website":"https://www.heidarbaer.is/sundlaug?lang=en","phone":null,"brand":null,"town":null},{"id":"w523729265","name":"Laugar swimming pool","kind":"pool","subkind":"swimming_pool","lat":65.72139,"lng":-17.35926,"cuisine":null,"hours":null,"website":null,"phone":null,"brand":null,"town":"Laugar"},{"id":"w620980298","name":"Hrunalaug","kind":"pool","subkind":"swimming_pool","lat":64.13287,"lng":-20.25495,"cuisine":null,"hours":null,"website":"https://www.hrunalaug.is/","phone":null,"brand":null,"town":null},{"id":"w690458876","name":"Sundlaug Hríseyjar","kind":"pool","subkind":"swimming_pool","lat":65.97854,"lng":-18.3729,"cuisine":null,"hours":null,"website":null,"phone":null,"brand":null,"town":null},{"id":"w837980442","name":"Áslaug","kind":"pool","subkind":"swimming_pool","lat":64.11217,"lng":-21.79478,"cuisine":null,"hours":null,"website":null,"phone":null,"brand":null,"town":null},{"id":"w837980447","name":"Lækurinn","kind":"pool","subkind":"swimming_pool","lat":64.11212,"lng":-21.79501,"cuisine":null,"hours":null,"website":null,"phone":null,"brand":null,"town":null},{"id":"w837980452","name":"Djúpið","kind":"pool","subkind":"swimming_pool","lat":64.112,"lng":-21.79534,"cuisine":null,"hours":null,"website":null,"phone":null,"brand":null,"town":null}]}