{"generated_at":"2026-07-13T07:53:41Z","source":"overpass","count":246,"poi":[{"id":"n10002119224","name":"Matabúr Kaju","kind":"grocery","subkind":"convenience","lat":64.32059,"lng":-22.06994,"cuisine":null,"hours":null,"website":"https://www.kajaorganic.com/matarbur-kaju","phone":null,"brand":null,"town":null},{"id":"n10031202310","name":"Esjuskálinn","kind":"grocery","subkind":"convenience","lat":64.242,"lng":-21.82995,"cuisine":null,"hours":"Mo-Th 08:00-20:00; Fr 08:00-21:00; Sa 09:00-21:00; Su 10:00-20:00","website":null,"phone":null,"brand":null,"town":null},{"id":"n10039030034","name":"Euro Market","kind":"grocery","subkind":"convenience","lat":64.11273,"lng":-21.9033,"cuisine":null,"hours":null,"website":null,"phone":null,"brand":null,"town":null},{"id":"n10135042406","name":"Jónsabúð","kind":"grocery","subkind":"supermarket","lat":65.94675,"lng":-18.18145,"cuisine":null,"hours":null,"website":null,"phone":null,"brand":null,"town":null},{"id":"n10838060572","name":"Bónus","kind":"grocery","subkind":"supermarket","lat":65.69836,"lng":-18.13911,"cuisine":null,"hours":"Mo-Su 10:00-21:00","website":"https://bonus.is/","phone":null,"brand":"Bónus","town":"Akureyri"},{"id":"n10865443471","name":"Hagkaup","kind":"grocery","subkind":"supermarket","lat":64.15072,"lng":-21.7872,"cuisine":null,"hours":"Mo-Su 08:00-24:00; easter +49 days,easter +50 days 10:00-24:00","website":"https://www.hagkaup.is/opnunartimi-spongin","phone":"+354 563 5300","brand":"Hagkaup","town":"Reykjavík"},{"id":"n10884336152","name":"Nettó","kind":"grocery","subkind":"supermarket","lat":64.07881,"lng":-21.95733,"cuisine":null,"hours":"Mo-Su 07:30-24:00","website":null,"phone":null,"brand":"Nettó","town":"Hafnarfjörður"},{"id":"n10884336153","name":"Nettó","kind":"grocery","subkind":"supermarket","lat":64.25245,"lng":-15.21262,"cuisine":null,"hours":"Mo-Fr 08:00-19:00; Sa-Su 09:00-19:00","website":"https://netto.is/","phone":null,"brand":"Nettó","town":"Höfn"},{"id":"n10884336163","name":"Nettó","kind":"grocery","subkind":"supermarket","lat":64.05054,"lng":-21.98971,"cuisine":null,"hours":"Mo-Su 07:30-24:00","website":null,"phone":null,"brand":"Nettó","town":"Hafnarfjörður"},{"id":"n10891967088","name":"Kjörbúðin","kind":"grocery","subkind":"convenience","lat":65.8246,"lng":-20.30593,"cuisine":null,"hours":"Mo-Fr 09:00-18:00; Sa 10:00-17:00; Su 12:00-17:00","website":"https://kjorbudin.is","phone":"+354 452 2700","brand":null,"town":"Skagaströnd"},{"id":"n10892964470","name":"Krambúðin","kind":"grocery","subkind":"convenience","lat":65.68681,"lng":-18.12835,"cuisine":null,"hours":"Mo-Fr 07:30-23:30; Sa 08:00-23:30; Su 09:00-23:30","website":"https://www.krambudin.is","phone":null,"brand":null,"town":"Akureyri"},{"id":"n10892964471","name":"Krambúðin","kind":"grocery","subkind":"convenience","lat":64.13102,"lng":-20.32098,"cuisine":null,"hours":"Mo-Su 09:00-19:00","website":"https://www.krambudin.is","phone":null,"brand":null,"town":"Flúðir"},{"id":"n10893090696","name":"Spar","kind":"grocery","subkind":"convenience","lat":64.11176,"lng":-21.91831,"cuisine":null,"hours":"Mo-Su 07:30-23:30","website":"https://sparisland.is","phone":null,"brand":"Spar","town":"Kópavogur"},{"id":"n10893090700","name":"Krambúðin","kind":"grocery","subkind":"convenience","lat":66.04674,"lng":-17.34314,"cuisine":null,"hours":"Mo-Th 08:00-21:00; Fr 08:00-22:00; Sa 10:00-22:00; Su 10:00-21:00","website":"https://www.krambudin.is","phone":null,"brand":null,"town":"Húsavík"},{"id":"n10893090701","name":"Krambúðin","kind":"grocery","subkind":"convenience","lat":64.14826,"lng":-21.88346,"cuisine":null,"hours":"Mo-Fr 08:00-23:30; Sa-Su 09:00-23:30","website":"https://www.krambudin.is","phone":null,"brand":null,"town":"Reykjavík"},{"id":"n10893170693","name":"Krambúðin","kind":"grocery","subkind":"convenience","lat":64.12387,"lng":-21.92654,"cuisine":null,"hours":"Mo-Fr 08:00-22:00; Sa-Su 10:00-18:00","website":"https://www.krambudin.is","phone":null,"brand":null,"town":"Reykjavík"},{"id":"n10893194708","name":"Krambúðin","kind":"grocery","subkind":"convenience","lat":63.9746,"lng":-22.50708,"cuisine":null,"hours":"Mo-Fr 08:00-23:30; Sa-Su 09:00-23:30","website":"https://www.krambudin.is","phone":null,"brand":null,"town":"Reykjanesbær"},{"id":"n10893194709","name":"Krambúðin","kind":"grocery","subkind":"convenience","lat":65.64172,"lng":-16.91054,"cuisine":null,"hours":"Mo-Fr 09:00-19:00; Sa-Su 10:00-18:00","website":"https://www.krambudin.is","phone":null,"brand":null,"town":"Reykjahlíð"},{"id":"n10913826007","name":"Iceland","kind":"grocery","subkind":"supermarket","lat":64.10552,"lng":-21.82288,"cuisine":null,"hours":"Mo-Fr 07:00-24:00; Sa-Su 09:00-24:00","website":null,"phone":null,"brand":null,"town":"Reykjavík"},{"id":"n10947635005","name":"Bláhornið","kind":"grocery","subkind":"convenience","lat":64.14407,"lng":-21.93574,"cuisine":null,"hours":"Mo-Sa 11:00-23:30; Su 12:00-23:30","website":null,"phone":"+354 571 0449","brand":null,"town":"Reykjavík"},{"id":"n10978037447","name":"Bónus","kind":"grocery","subkind":"supermarket","lat":64.10125,"lng":-21.77696,"cuisine":null,"hours":"Mo-Su 09:00-21:00","website":null,"phone":null,"brand":"Bónus","town":"Reykjavík"},{"id":"n10989526436","name":"OK Market","kind":"grocery","subkind":"convenience","lat":64.13334,"lng":-21.9321,"cuisine":null,"hours":"Mo-Sa 07:00-24:00, Su 09:00-24:00","website":null,"phone":null,"brand":null,"town":null},{"id":"n11018082572","name":"N1","kind":"grocery","subkind":"convenience","lat":66.04759,"lng":-17.34347,"cuisine":null,"hours":"Mo-Fr 08:00-22:00; Sa-Su 10:00-22:00","website":"https://n1.is/","phone":"+354 440 1448","brand":null,"town":"Húsavík"},{"id":"n11063157805","name":"Reykhólabúðin","kind":"grocery","subkind":"convenience","lat":65.4516,"lng":-22.20156,"cuisine":null,"hours":null,"website":null,"phone":null,"brand":null,"town":null},{"id":"n11179345081","name":"Vogus","kind":"grocery","subkind":"convenience","lat":63.98066,"lng":-22.37917,"cuisine":null,"hours":"Mo-Sa 11:00-19:00; Su 11:00-17:00","website":null,"phone":null,"brand":null,"town":"Vogar"},{"id":"n11375843498","name":"Bónus","kind":"grocery","subkind":"supermarket","lat":64.07622,"lng":-21.92711,"cuisine":null,"hours":"Mo-Su 10:00-20:00","website":"https://bonus.is","phone":null,"brand":"Bónus","town":"Garðabær"},{"id":"n12071303485","name":"Verslunin Vala","kind":"grocery","subkind":"convenience","lat":64.06583,"lng":-20.64439,"cuisine":null,"hours":"Mo-Su 11:00-16:00","website":null,"phone":null,"brand":null,"town":null},{"id":"n12142729114","name":"Prís","kind":"grocery","subkind":"supermarket","lat":64.10263,"lng":-21.88069,"cuisine":null,"hours":"Mo-Su 10:00-19:00","website":"https://www.prisarar.is","phone":null,"brand":null,"town":"Kópavogur"},{"id":"n122274060","name":"Bónus","kind":"grocery","subkind":"supermarket","lat":64.32723,"lng":-22.0552,"cuisine":null,"hours":"Mo-Su 10:00-20:00","website":null,"phone":null,"brand":"Bónus","town":"Akranes"},{"id":"n122275592","name":"Bónus","kind":"grocery","subkind":"supermarket","lat":64.54123,"lng":-21.90933,"cuisine":null,"hours":"Mo-Su 10:00-20:00","website":"https://bonus.is/","phone":null,"brand":"Bónus","town":"Borgarnes"},{"id":"n12244055146","name":"Lítl Something","kind":"grocery","subkind":"convenience","lat":64.81902,"lng":-23.56419,"cuisine":null,"hours":null,"website":null,"phone":null,"brand":null,"town":null},{"id":"n1241852013","name":"Melabúðin","kind":"grocery","subkind":"supermarket","lat":64.14471,"lng":-21.96036,"cuisine":null,"hours":"Mo-Fr 09:00-20:00; Sa 10:00-20:00; Su 12:00-20:00","website":null,"phone":null,"brand":null,"town":null},{"id":"n12422337603","name":"Nettó","kind":"grocery","subkind":"supermarket","lat":63.93269,"lng":-21.01594,"cuisine":null,"hours":"Mo-Su 07:30-21:00","website":null,"phone":null,"brand":"Nettó","town":"Selfoss"},{"id":"n1243095788","name":"10-11","kind":"grocery","subkind":"convenience","lat":63.99646,"lng":-22.62283,"cuisine":null,"hours":"24/7","website":null,"phone":null,"brand":"10-11","town":null},{"id":"n1252270381","name":"Nettó","kind":"grocery","subkind":"supermarket","lat":64.54314,"lng":-21.91183,"cuisine":null,"hours":"Mo-Su 09:00-20:00","website":null,"phone":null,"brand":"Nettó","town":"Borgarnes"},{"id":"n1253751283","name":"Hagkaup","kind":"grocery","subkind":"supermarket","lat":64.09052,"lng":-21.92593,"cuisine":null,"hours":"24/7","website":"https://www.hagkaup.is/opnunartimi-gardabaer","phone":"+354 563 5400","brand":"Hagkaup","town":"Garðabær"},{"id":"n1259103379","name":"Skjálfti","kind":"grocery","subkind":"convenience","lat":64.66277,"lng":-21.28316,"cuisine":null,"hours":null,"website":null,"phone":null,"brand":null,"town":null},{"id":"n126524221","name":"Bónus","kind":"grocery","subkind":"supermarket","lat":65.07388,"lng":-22.72892,"cuisine":null,"hours":"Mo-Su 10:00-19:00","website":"https://bonus.is/","phone":null,"brand":"Bónus","town":"Stykkishólmur"},{"id":"n12670965368","name":"Kjörbúðin","kind":"grocery","subkind":"convenience","lat":65.67935,"lng":-18.10896,"cuisine":null,"hours":"24/7","website":"https://kjorbudin.is","phone":"+354 547 0325","brand":null,"town":"Akureyri"},{"id":"n1269864497","name":"Hagkaup","kind":"grocery","subkind":"supermarket","lat":64.15029,"lng":-21.98433,"cuisine":null,"hours":"Mo-Su 08:00-24:00; easter +49 days,easter +50 days 10:00-24:00","website":"https://www.hagkaup.is/opnunartimi-eidistorg","phone":"+354 563 5150","brand":"Hagkaup","town":"Seltjarnarnes"},{"id":"n12828405497","name":"Dracula Grocery Store - Magazin Romanesc","kind":"grocery","subkind":"convenience","lat":64.07955,"lng":-21.94338,"cuisine":null,"hours":null,"website":null,"phone":null,"brand":null,"town":null},{"id":"n1283535743","name":"Bónus","kind":"grocery","subkind":"supermarket","lat":64.10356,"lng":-21.87965,"cuisine":null,"hours":"Mo-Su 09:00-22:00","website":"https://bonus.is/","phone":null,"brand":"Bónus","town":"Kópavogur"},{"id":"n1285282368","name":"Hagkaup","kind":"grocery","subkind":"supermarket","lat":64.10083,"lng":-21.88149,"cuisine":null,"hours":"Mo-Fr 10:00-19:00; Sa 10:00-18:00; Su 12:00-17:00; May 01,easter +39 days,easter +50 days 12:00-17:00; easter +49 days off","website":"https://www.hagkaup.is/opnunartimi-smaralind","phone":"+354 530 1000","brand":"Hagkaup","town":"Kópavogur"},{"id":"n12888970101","name":"Self-Service","kind":"grocery","subkind":"convenience","lat":65.60868,"lng":-24.17027,"cuisine":null,"hours":"24/7","website":null,"phone":null,"brand":null,"town":null},{"id":"n12897322301","name":"Fiskabúrið","kind":"grocery","subkind":"convenience","lat":65.55104,"lng":-23.19841,"cuisine":null,"hours":"24/7","website":null,"phone":null,"brand":null,"town":null},{"id":"n12899746501","name":"Heiðarleikabúð","kind":"grocery","subkind":"convenience","lat":65.5078,"lng":-22.46528,"cuisine":null,"hours":"24/7","website":null,"phone":null,"brand":null,"town":null},{"id":"n12922379173","name":"Deli","kind":"grocery","subkind":"convenience","lat":64.16768,"lng":-21.6965,"cuisine":null,"hours":"Mo-Su 07:00-22:00","website":"https://deli.is/","phone":"+354 781 0345","brand":null,"town":null},{"id":"n1299573397","name":"Krónan","kind":"grocery","subkind":"supermarket","lat":64.11551,"lng":-21.79008,"cuisine":null,"hours":"Mo-Su 08:00-21:00","website":"https://kronan.is/","phone":"+354 585 7000","brand":"Krónan","town":"Reykjavík"},{"id":"n12997224401","name":"Verslunin Skerjakolla","kind":"grocery","subkind":"supermarket","lat":66.30035,"lng":-16.44784,"cuisine":null,"hours":null,"website":null,"phone":null,"brand":null,"town":null},{"id":"n1326234903","name":"Bjarnabúð","kind":"grocery","subkind":"convenience","lat":64.17708,"lng":-20.45357,"cuisine":null,"hours":"Mo-Fr 09:00-18:00; Sa,Su 11:00-18:00","website":null,"phone":null,"brand":null,"town":null},{"id":"n1344370145","name":"Mini Market","kind":"grocery","subkind":"supermarket","lat":64.10125,"lng":-21.82427,"cuisine":null,"hours":"Sa 09:00-20:00; Su 10:00-20:00; Mo-Fr 10:00-21:00","website":"https://minimarket.is/","phone":"+354 517 01 07","brand":null,"town":"Reykjavík"},{"id":"n1364756198","name":"Skagfirðingabúð","kind":"grocery","subkind":"supermarket","lat":65.7414,"lng":-19.63738,"cuisine":null,"hours":"Mo-Fr 09:00-19:00; Sa 10:00-16:00","website":"https://www.ks.is/","phone":"+354 455 4530","brand":null,"town":"Sauðárkrókur"},{"id":"n13665097502","name":"Verslun Hofsósi","kind":"grocery","subkind":"supermarket","lat":65.89839,"lng":-19.408,"cuisine":null,"hours":null,"website":null,"phone":null,"brand":null,"town":null},{"id":"n1374259192","name":"Nettó","kind":"grocery","subkind":"supermarket","lat":65.68677,"lng":-18.10401,"cuisine":null,"hours":"Mo-Su 09:00-20:00","website":null,"phone":null,"brand":"Nettó","town":"Akureyri"},{"id":"n13791985576","name":"Krambúðin","kind":"grocery","subkind":"convenience","lat":64.13546,"lng":-21.95107,"cuisine":null,"hours":"Mo-Fr 07:00-24:00; Sa-Su 09:00-24:00","website":"https://www.krambudin.is","phone":null,"brand":null,"town":"Reykjavík"},{"id":"n13791985577","name":"Kjörbúðin","kind":"grocery","subkind":"convenience","lat":64.00133,"lng":-22.55119,"cuisine":null,"hours":"24/7","website":"https://kjorbudin.is","phone":"+354 547 0324","brand":null,"town":"Reykjanesbær"},{"id":"n13799501358","name":"Lux Market","kind":"grocery","subkind":"convenience","lat":64.13198,"lng":-21.87416,"cuisine":null,"hours":null,"website":null,"phone":null,"brand":null,"town":null},{"id":"n13799501359","name":"Istanbul Market","kind":"grocery","subkind":"convenience","lat":64.13246,"lng":-21.87379,"cuisine":null,"hours":null,"website":null,"phone":null,"brand":null,"town":null},{"id":"n13829887615","name":"N1","kind":"grocery","subkind":"convenience","lat":64.54381,"lng":-21.91063,"cuisine":null,"hours":"Mo-Su 08:00-23:00","website":"https://n1.is/","phone":"+354 440 1333","brand":null,"town":"Borgarnes"},{"id":"n1389249076","name":"Árborg","kind":"grocery","subkind":"convenience","lat":64.04132,"lng":-20.25097,"cuisine":null,"hours":"Mo-Sa 09:00-19:00; Su 10:00-19:00","website":null,"phone":null,"brand":null,"town":null},{"id":"n13898253967","name":"10-11","kind":"grocery","subkind":"convenience","lat":64.14303,"lng":-21.91535,"cuisine":null,"hours":"Mo-Su 08:00-23:00","website":null,"phone":"+354 578 1006","brand":"10-11","town":"Reykjavík"},{"id":"n13899183815","name":"N1","kind":"grocery","subkind":"convenience","lat":65.66988,"lng":-18.08095,"cuisine":null,"hours":"Mo-Fr 07:30-21:00; Sa-Su 09:00-21:00","website":"https://n1.is/","phone":"+354 440 1435","brand":null,"town":"Akureyri"},{"id":"n13899183819","name":"N1","kind":"grocery","subkind":"convenience","lat":65.74042,"lng":-19.63648,"cuisine":null,"hours":"Mo-Fr 08:00-22:00; Sa-Su 10:00-22:00","website":"https://n1.is/","phone":"+354 440 1354","brand":null,"town":"Sauðárkrókur"},{"id":"n13899183821","name":"N1","kind":"grocery","subkind":"convenience","lat":65.66024,"lng":-20.2757,"cuisine":null,"hours":"Mo-Fr 07:30-22:00; Sa-Su 09:00-22:00","website":"https://n1.is/","phone":"+354 440 1339","brand":null,"town":"Blönduós"},{"id":"n13899183823","name":"N1","kind":"grocery","subkind":"convenience","lat":65.14469,"lng":-21.0839,"cuisine":null,"hours":"Mo-Su 08:00-23:00","website":"https://n1.is/","phone":"+354 440 1336","brand":null,"town":"Staður"},{"id":"n13899183836","name":"N1","kind":"grocery","subkind":"convenience","lat":64.16609,"lng":-21.69571,"cuisine":null,"hours":"Mo-Fr 07:00-23:00; Sa 08:00-23:00; Su 09:00-23:00","website":"https://n1.is/","phone":"+354 440 1350","brand":null,"town":"Mosfellsbær"},{"id":"n13899183846","name":"N1","kind":"grocery","subkind":"convenience","lat":64.14651,"lng":-21.89456,"cuisine":null,"hours":"Mo-Fr 07:30-19:30; Sa 09:00-17:00; Su 10:00-17:00","website":"https://n1.is/","phone":"+354 440 1306","brand":null,"town":"Reykjavík"},{"id":"n13899183848","name":"N1","kind":"grocery","subkind":"convenience","lat":64.1388,"lng":-21.938,"cuisine":null,"hours":"24/7","website":"https://n1.is/","phone":"+354 440 1300","brand":null,"town":"Reykjavík"},{"id":"n13899183851","name":"N1","kind":"grocery","subkind":"convenience","lat":64.11784,"lng":-21.89924,"cuisine":null,"hours":"Mo-Fr 07:00-22:00; Sa-Su 10:00-22:00","website":"https://n1.is/","phone":"+354 440 1362","brand":null,"town":"Reykjavík"},{"id":"n13899183852","name":"N1","kind":"grocery","subkind":"convenience","lat":64.10989,"lng":-21.8564,"cuisine":null,"hours":"Mo-Fr 07:30-19:30; Sa 09:00-19:30; Su 10:00-19:30","website":"https://n1.is/","phone":"+354 554 3301","brand":null,"town":"Kópavogur"},{"id":"n13899183857","name":"N1","kind":"grocery","subkind":"convenience","lat":64.06665,"lng":-21.93869,"cuisine":null,"hours":"24/7","website":"https://n1.is/","phone":"+354 440 1303","brand":null,"town":"Hafnarfjörður"},{"id":"n13899394290","name":"Olís","kind":"grocery","subkind":"convenience","lat":64.15259,"lng":-21.9552,"cuisine":null,"hours":"Mo-Fr 07:30-19:30; Sa 10:00-19:30; Su 11:00-19:30","website":"https://www.olis.is","phone":"+354 552 4190","brand":null,"town":"Reykjavík"},{"id":"n13899394292","name":"Olís","kind":"grocery","subkind":"convenience","lat":64.15029,"lng":-21.87028,"cuisine":null,"hours":"Mo-Fr 07:30-19:30; Sa 10:00-19:30; Su 11:00-19:30","website":"https://www.olis.is","phone":"+354 553 5420","brand":null,"town":"Reykjavík"},{"id":"n13899394295","name":"Olís","kind":"grocery","subkind":"convenience","lat":64.13267,"lng":-21.8668,"cuisine":null,"hours":"Mo-Fr 07:00-21:00; Sa-Su 09:00-21:00","website":"https://www.olis.is","phone":"+354 553 5445","brand":null,"town":"Reykjavík"},{"id":"n13899394300","name":"Olís","kind":"grocery","subkind":"convenience","lat":64.13728,"lng":-21.80757,"cuisine":null,"hours":"Mo-Fr 07:30-22:00; Sa-Su 09:00-22:00","website":null,"phone":null,"brand":null,"town":null},{"id":"n13899397603","name":"Olís","kind":"grocery","subkind":"convenience","lat":64.16583,"lng":-21.70739,"cuisine":null,"hours":"Mo-Fr 07:00-23:00; Sa-Su 08:00-23:00","website":null,"phone":null,"brand":null,"town":null},{"id":"n13904113293","name":"Bláa sjoppan","kind":"grocery","subkind":"convenience","lat":64.15103,"lng":-21.77378,"cuisine":null,"hours":"Mo-Fr 09:00-23:00; Sa-Su 10:00-23:00","website":null,"phone":"+354 552 0415","brand":null,"town":"Reykjavík"},{"id":"n13930889513","name":"Mój Market","kind":"grocery","subkind":"convenience","lat":64.1425,"lng":-21.90305,"cuisine":null,"hours":"Mo-Th 09:00-22:00; Fr-Sa 09:00-23:00; Su 09:00-21:00","website":"https://mojmarket.is","phone":"+354 850 6868","brand":null,"town":"Reykjavík"},{"id":"n13978029659","name":"Point - Grab'n go Convenience Store","kind":"grocery","subkind":"convenience","lat":63.99584,"lng":-22.62354,"cuisine":null,"hours":null,"website":"https://www.kefairport.com/restaurants/point","phone":null,"brand":null,"town":null},{"id":"n1407351556","name":"Krónu Skutl","kind":"grocery","subkind":"convenience","lat":63.78922,"lng":-18.04996,"cuisine":null,"hours":null,"website":null,"phone":null,"brand":null,"town":null},{"id":"n1412604559","name":"Mountain Mall","kind":"grocery","subkind":"convenience","lat":63.98959,"lng":-19.05899,"cuisine":null,"hours":null,"website":null,"phone":null,"brand":null,"town":null},{"id":"n1457633610","name":"Bónus","kind":"grocery","subkind":"supermarket","lat":64.12969,"lng":-21.89596,"cuisine":null,"hours":"Mo-Su 10:00-19:00","website":"https://www.bonus.is/","phone":null,"brand":"Bónus","town":"Reykjavík"},{"id":"n1457633635","name":"Hagkaup","kind":"grocery","subkind":"supermarket","lat":64.13112,"lng":-21.89367,"cuisine":null,"hours":"Mo-Fr 10:00-18:30; Sa 10:00-18:00; Su 12:00-17:00; May 01,easter +39 days,easter +50 days 12:00-17:00; easter +49 days off","website":"https://www.hagkaup.is/opnunartimi-kringlan","phone":"+354 563 5200","brand":"Hagkaup","town":"Reykjavík"},{"id":"n1651352932","name":"Víkurbúðin","kind":"grocery","subkind":"convenience","lat":66.02605,"lng":-22.99142,"cuisine":null,"hours":null,"website":null,"phone":null,"brand":null,"town":null},{"id":"n1730242027","name":"Krónan","kind":"grocery","subkind":"supermarket","lat":64.11224,"lng":-21.90389,"cuisine":null,"hours":"Mo-Su 08:00-21:00","website":"https://kronan.is/","phone":"+354 585 7000","brand":"Krónan","town":"Kópavogur"},{"id":"n1760884564","name":"Krambúðin","kind":"grocery","subkind":"convenience","lat":64.14159,"lng":-21.96205,"cuisine":null,"hours":"Mo-Fr 08:00-23:30; Sa-Su 09:00-23:30","website":"https://www.krambudin.is","phone":null,"brand":null,"town":"Reykjavík"},{"id":"n1801741683","name":"Bónus","kind":"grocery","subkind":"supermarket","lat":63.93813,"lng":-20.97374,"cuisine":null,"hours":"Mo-Su 09:00-21:00","website":null,"phone":null,"brand":"Bónus","town":"Selfoss"},{"id":"n1849130160","name":"Drekinn","kind":"grocery","subkind":"convenience","lat":64.07982,"lng":-21.94282,"cuisine":null,"hours":"Mo-Fr 10:00-23:00; Sa-Su 11:00-23:00","website":null,"phone":null,"brand":null,"town":"Hafnarfjörður"},{"id":"n1853727120","name":"u Dziada","kind":"grocery","subkind":"convenience","lat":64.11077,"lng":-21.8474,"cuisine":null,"hours":null,"website":null,"phone":null,"brand":null,"town":null},{"id":"n1863751547","name":"Matarbúðin Nándin","kind":"grocery","subkind":"convenience","lat":64.06717,"lng":-21.9518,"cuisine":null,"hours":"Mo-Fr 10:00-18:00; Sa 12:00-16:00","website":"https://www.matarbudin.is","phone":"+354 470 1300","brand":null,"town":"Hafnarfjörður"},{"id":"n1867939801","name":"Þristur Ormsson","kind":"grocery","subkind":"convenience","lat":66.07372,"lng":-23.12022,"cuisine":null,"hours":null,"website":null,"phone":null,"brand":null,"town":null},{"id":"n1880180139","name":"Kjörbúðin","kind":"grocery","subkind":"convenience","lat":65.07086,"lng":-14.01377,"cuisine":null,"hours":"Mo-Fr 09:00-18:00; Sa 10:00-17:00; Su 12:00-17:00","website":"https://kjorbudin.is","phone":"+354 476 1580","brand":null,"town":"Eskifjörður"},{"id":"n1916214874","name":"Veitingasala","kind":"grocery","subkind":"convenience","lat":63.99043,"lng":-16.89624,"cuisine":null,"hours":null,"website":null,"phone":null,"brand":null,"town":null},{"id":"n192959398","name":"Krónan","kind":"grocery","subkind":"supermarket","lat":63.93769,"lng":-21.0018,"cuisine":null,"hours":"Mo-Su 08:00-21:00","website":"https://kronan.is/","phone":"+354 585 7000","brand":"Krónan","town":"Selfoss"},{"id":"n201518347","name":"Nettó","kind":"grocery","subkind":"supermarket","lat":63.93675,"lng":-20.98985,"cuisine":null,"hours":"Mo-Su 09:00-21:00","website":null,"phone":null,"brand":"Nettó","town":"Selfoss"},{"id":"n2019146672","name":"Verslun Einars Ólafssonar","kind":"grocery","subkind":"supermarket","lat":64.31959,"lng":-22.07652,"cuisine":null,"hours":null,"website":null,"phone":null,"brand":null,"town":null},{"id":"n2078435386","name":"Kjörbúðin","kind":"grocery","subkind":"convenience","lat":64.03937,"lng":-22.70635,"cuisine":null,"hours":"Mo-Fr 09:00-18:00; Sa 10:00-17:00; Su 12:00-17:00","website":"https://kjorbudin.is","phone":"+354 423 7410","brand":null,"town":"Sandgerði"},{"id":"n2247125380","name":"Mai Thai","kind":"grocery","subkind":"supermarket","lat":64.14292,"lng":-21.91467,"cuisine":null,"hours":"Mo-Fr 11:00-21:00; Sa 14:00-21:00","website":"https://www.maithai.is","phone":null,"brand":null,"town":null},{"id":"n2337596213","name":"Bónus","kind":"grocery","subkind":"supermarket","lat":64.11426,"lng":-21.89834,"cuisine":null,"hours":"Mo-Su 10:00-21:00","website":"https://www.bonus.is/","phone":null,"brand":"Bónus","town":"Kópavogur"},{"id":"n2356459308","name":"Nettó","kind":"grocery","subkind":"supermarket","lat":64.11001,"lng":-21.85884,"cuisine":null,"hours":"Mo-Su 07:30-24:00","website":null,"phone":null,"brand":"Nettó","town":"Kópavogur"},{"id":"n2378038495","name":"Bónus","kind":"grocery","subkind":"supermarket","lat":64.09643,"lng":-21.8029,"cuisine":null,"hours":"Mo-Su 10:00-21:00","website":"https://bonus.is/","phone":null,"brand":"Bónus","town":"Kópavogur"},{"id":"n2383054289","name":"Spar","kind":"grocery","subkind":"convenience","lat":64.06675,"lng":-21.93633,"cuisine":null,"hours":"24/7","website":"https://sparisland.is","phone":null,"brand":"Spar","town":"Hafnarfjörður"},{"id":"n2383088038","name":"Nettó","kind":"grocery","subkind":"supermarket","lat":63.99994,"lng":-22.57666,"cuisine":null,"hours":"Mo-Su 09:00-21:00","website":null,"phone":null,"brand":"Nettó","town":"Reykjanesbær"},{"id":"n2410386536","name":"Nettó","kind":"grocery","subkind":"supermarket","lat":65.26046,"lng":-14.40674,"cuisine":null,"hours":"Mo-Su 09:00-19:00","website":null,"phone":"+354 470 1210","brand":"Nettó","town":"Egilsstaðir"},{"id":"n2412862340","name":"Kaupfélag Vestur-Húnvetninga","kind":"grocery","subkind":"supermarket","lat":65.39587,"lng":-20.94675,"cuisine":null,"hours":"Mo-Th 09:00-18:00; Fr 09:00-19:00; Sa 11:00-16:00; PH off","website":"https://www.kvh.is/","phone":"+354 455 2300","brand":null,"town":null},{"id":"n2477138534","name":"Bónus","kind":"grocery","subkind":"supermarket","lat":64.10895,"lng":-21.81604,"cuisine":null,"hours":"Mo-Su 10:00-20:00","website":"https://bonus.is/","phone":null,"brand":"Bónus","town":"Reykjavík"},{"id":"n2487357960","name":"Krónan","kind":"grocery","subkind":"supermarket","lat":63.85743,"lng":-21.38183,"cuisine":null,"hours":"Mo-Su 10:00-19:00","website":"https://kronan.is/","phone":"+354 585 7000","brand":"Krónan","town":"Þorlákshöfn"},{"id":"n251964864","name":"Bónus","kind":"grocery","subkind":"supermarket","lat":64.1425,"lng":-21.84761,"cuisine":null,"hours":"Mo-Su 09:00-20:00","website":"https://www.bonus.is/","phone":null,"brand":"Bónus","town":"Reykjavík"},{"id":"n252165594","name":"Bónus","kind":"grocery","subkind":"supermarket","lat":64.05236,"lng":-21.97975,"cuisine":null,"hours":"Mo-Su 10:00-21:00","website":"https://bonus.is/","phone":"+354 544 8101","brand":"Bónus","town":"Hafnarfjörður"},{"id":"n252742024","name":"Bónus","kind":"grocery","subkind":"supermarket","lat":64.07295,"lng":-21.91207,"cuisine":null,"hours":"Mo-Su 10:00-20:00","website":"https://bonus.is/","phone":null,"brand":"Bónus","town":"Garðabær"},{"id":"n285919888","name":"Bónus","kind":"grocery","subkind":"supermarket","lat":63.99566,"lng":-21.19016,"cuisine":null,"hours":"Mo-Su 10:00-20:00","website":null,"phone":null,"brand":"Bónus","town":"Hveragerði"},{"id":"n288058255","name":"Krambúðin","kind":"grocery","subkind":"convenience","lat":63.93231,"lng":-21.00024,"cuisine":null,"hours":"Mo-Fr 07:30-23:30; Sa 08:00-23:30; Su 09:00-23:30","website":"https://www.krambudin.is","phone":null,"brand":null,"town":"Selfoss"},{"id":"n2935303659","name":"Kjörbúðin","kind":"grocery","subkind":"convenience","lat":64.92531,"lng":-23.26022,"cuisine":null,"hours":"Mo-Fr 09:00-18:00; Sa 10:00-17:00; Su 12:00-17:00","website":"https://kjorbudin.is","phone":"+354 438 6700","brand":null,"town":"Grundarfjörður"},{"id":"n2946113762","name":"Kauptún","kind":"grocery","subkind":"supermarket","lat":65.75375,"lng":-14.82709,"cuisine":null,"hours":"Jan-Dec: Mo-Fr 09:30-18:00; Sa 12:00-16:00","website":null,"phone":null,"brand":null,"town":null},{"id":"n2946126429","name":"Kjörbúðin","kind":"grocery","subkind":"convenience","lat":64.92993,"lng":-14.01129,"cuisine":null,"hours":"Mo-Fr 09:00-18:00; Sa 10:00-17:00; Su 12:00-17:00","website":"https://kjorbudin.is","phone":"+354 475 1580","brand":null,"town":"Fáskrúðsfjörður"},{"id":"n295014466","name":"Krónan","kind":"grocery","subkind":"supermarket","lat":64.1658,"lng":-21.69696,"cuisine":null,"hours":"Mo-Su 08:00-21:00","website":"https://kronan.is/","phone":"+354 585 7000","brand":"Krónan","town":"Mosfellsbær"},{"id":"n296347276","name":"Krónan","kind":"grocery","subkind":"supermarket","lat":64.15514,"lng":-21.94951,"cuisine":null,"hours":"Mo-Su 08:00-21:00","website":"https://kronan.is/","phone":"+354 585 7000","brand":"Krónan","town":"Reykjavík"},{"id":"n2970556506","name":"Krónan","kind":"grocery","subkind":"supermarket","lat":64.08448,"lng":-21.82153,"cuisine":null,"hours":"Mo-Su 08:00-21:00","website":"https://kronan.is/","phone":"+354 585 7000","brand":"Krónan","town":"Kópavogur"},{"id":"n297289761","name":"Landvegamót","kind":"grocery","subkind":"convenience","lat":63.87958,"lng":-20.50073,"cuisine":null,"hours":null,"website":null,"phone":null,"brand":null,"town":null},{"id":"n2988344881","name":"Verslunin Álfheimar","kind":"grocery","subkind":"convenience","lat":64.1375,"lng":-21.85917,"cuisine":null,"hours":"Mo-Su 10:00-22:00","website":null,"phone":null,"brand":null,"town":null},{"id":"n2999522081","name":"Olís","kind":"grocery","subkind":"convenience","lat":66.03911,"lng":-17.34317,"cuisine":null,"hours":null,"website":"https://www.olis.is/","phone":"+354 464 1040","brand":null,"town":null},{"id":"n301005703","name":"Hagkaup","kind":"grocery","subkind":"supermarket","lat":64.12961,"lng":-21.8692,"cuisine":null,"hours":"24/7","website":"https://www.hagkaup.is/opnunartimi-skeifan","phone":"+354 563 5100","brand":"Hagkaup","town":"Reykjavík"},{"id":"n301013791","name":"Nettó","kind":"grocery","subkind":"supermarket","lat":64.13346,"lng":-21.86786,"cuisine":null,"hours":"Mo-Su 07:30-24:00","website":"https://netto.is","phone":"+354 568 2966","brand":"Nettó","town":"Reykjavík"},{"id":"n305004175","name":"Ólabúð","kind":"grocery","subkind":"convenience","lat":64.13029,"lng":-21.85284,"cuisine":null,"hours":"Mo-Fr 09:00-21:00, Sa-Su 11:00-21:00","website":null,"phone":null,"brand":null,"town":null},{"id":"n306597504","name":"Krónan","kind":"grocery","subkind":"supermarket","lat":64.12851,"lng":-21.88734,"cuisine":null,"hours":"Mo-Su 08:00-21:00","website":"https://kronan.is/","phone":"+354 585 7000","brand":"Krónan","town":"Reykjavík"},{"id":"n316138190","name":"10-11","kind":"grocery","subkind":"convenience","lat":64.14757,"lng":-21.93787,"cuisine":null,"hours":"24/7","website":null,"phone":"+354 552 1011","brand":"10-11","town":"Reykjavík"},{"id":"n318959634","name":"N1 Skútan","kind":"grocery","subkind":"convenience","lat":64.32195,"lng":-22.06526,"cuisine":null,"hours":"Mo-Fr 08:00-22:00; Sa,Su 10:00-22:00","website":"https://n1.is/","phone":"+354 431 2061","brand":null,"town":"Akranes"},{"id":"n318966726","name":"Krónan","kind":"grocery","subkind":"supermarket","lat":64.3218,"lng":-22.06999,"cuisine":null,"hours":"Mo-Su 08:00-21:00","website":"https://kronan.is/","phone":"+354 585 7000","brand":"Krónan","town":"Akranes"},{"id":"n319970958","name":"Hagkaup","kind":"grocery","subkind":"supermarket","lat":65.69038,"lng":-18.0895,"cuisine":null,"hours":"Mo-Su 08:00-24:00; easter +49 days,easter +50 days 10:00-24:00","website":"https://www.hagkaup.is/opnunartimi-akureyri","phone":"+354 563 5256","brand":"Hagkaup","town":"Akureyri"},{"id":"n320557574","name":"Krónan","kind":"grocery","subkind":"supermarket","lat":64.10191,"lng":-21.87297,"cuisine":null,"hours":"Mo-Su 09:00-21:00","website":"https://kronan.is/","phone":"+354 585 7000","brand":"Krónan","town":"Kópavogur"},{"id":"n320959961","name":"Nettó","kind":"grocery","subkind":"supermarket","lat":65.67756,"lng":-18.11896,"cuisine":null,"hours":"Mo-Su 09:00-21:00","website":null,"phone":null,"brand":"Nettó","town":"Akureyri"},{"id":"n323388565","name":"Mój Market","kind":"grocery","subkind":"convenience","lat":64.10879,"lng":-21.84351,"cuisine":null,"hours":"Mo-Th 09:00-22:00; Fr-Sa 09:00-23:00; Su 09:00-21:00","website":"https://mojmarket.is","phone":"+354 850 6868","brand":null,"town":"Reykjavík"},{"id":"n324375422","name":"Kjörbúðin","kind":"grocery","subkind":"convenience","lat":65.97305,"lng":-18.53155,"cuisine":null,"hours":"Mo-Fr 09:00-18:00; Sa 10:00-17:00; Su 12:00-17:00","website":"https://kjorbudin.is","phone":"+354 466 3211","brand":null,"town":"Dalvík"},{"id":"n324466466","name":"Àsbyrgi","kind":"grocery","subkind":"convenience","lat":66.03036,"lng":-16.4835,"cuisine":null,"hours":"Mo-Fr 09:00-18:00; Sa,Su 11:00-17:00","website":null,"phone":null,"brand":null,"town":null},{"id":"n331196629","name":"Kjörbúðin","kind":"grocery","subkind":"convenience","lat":64.65597,"lng":-14.28603,"cuisine":null,"hours":"Mo-Fr 09:00-18:00; Sa 10:00-17:00; Su 12:00-17:00","website":"https://kjorbudin.is","phone":"+354 478 8888","brand":null,"town":"Djúpivogur"},{"id":"n331269141","name":"Bónus","kind":"grocery","subkind":"supermarket","lat":65.26361,"lng":-14.40474,"cuisine":null,"hours":"Mo-Su 10:00-20:00","website":"https://bonus.is","phone":null,"brand":"Bónus","town":"Egilsstaðir"},{"id":"n3315387544","name":"Bónus","kind":"grocery","subkind":"supermarket","lat":64.08905,"lng":-21.92026,"cuisine":null,"hours":"Mo-Su 10:00-20:00","website":"https://bonus.is/","phone":null,"brand":"Bónus","town":"Garðabær"},{"id":"n337977634","name":"Kjörbúðin","kind":"grocery","subkind":"convenience","lat":65.25995,"lng":-14.00876,"cuisine":null,"hours":"Mo-Fr 09:00-18:00; Sa 10:00-17:00; Su 12:00-17:00","website":"https://kjorbudin.is","phone":"+354 472 1201","brand":null,"town":"Seyðisfjörður"},{"id":"n3622187781","name":"Spar","kind":"grocery","subkind":"convenience","lat":64.08759,"lng":-21.8332,"cuisine":null,"hours":"Mo-Su 08:00-24:00","website":"https://sparisland.is","phone":null,"brand":"Spar","town":"Kópavogur"},{"id":"n367401100","name":"Kjörbúðin","kind":"grocery","subkind":"convenience","lat":66.0737,"lng":-18.645,"cuisine":null,"hours":"Mo-Fr 09:00-18:00; Sa 10:00-17:00; Su 12:00-17:00","website":"https://kjorbudin.is","phone":"+354 466 2200","brand":null,"town":"Ólafsfjörður"},{"id":"n3698950691","name":"Bónus","kind":"grocery","subkind":"supermarket","lat":64.14149,"lng":-21.90739,"cuisine":null,"hours":"Mo-Su 10:00-22:00","website":"https://www.bonus.is/","phone":null,"brand":"Bónus","town":"Reykjavík"},{"id":"n3705941057","name":"Háteigsbúðin","kind":"grocery","subkind":"convenience","lat":64.13955,"lng":-21.91549,"cuisine":null,"hours":null,"website":null,"phone":null,"brand":null,"town":"Reykjavík"},{"id":"n3716150052","name":"Kvikk","kind":"grocery","subkind":"supermarket","lat":64.10208,"lng":-21.88426,"cuisine":null,"hours":"24/7","website":null,"phone":null,"brand":null,"town":null},{"id":"n372929954","name":"Bónus","kind":"grocery","subkind":"supermarket","lat":63.97277,"lng":-22.54361,"cuisine":null,"hours":"Mo-Su 09:00-21:00","website":null,"phone":"+354 527 9000","brand":"Bónus","town":"Reykjanesbær"},{"id":"n3743575208","name":"Kvikk On the Go","kind":"grocery","subkind":"convenience","lat":64.1312,"lng":-21.91837,"cuisine":null,"hours":"Mo-Su 08:00-24:00","website":null,"phone":null,"brand":null,"town":null},{"id":"n3756692819","name":"Krónan","kind":"grocery","subkind":"supermarket","lat":64.13009,"lng":-21.76124,"cuisine":null,"hours":"Mo-Su 08:00-21:00","website":"https://kronan.is/","phone":"+354 585 7185","brand":"Krónan","town":"Reykjavík"},{"id":"n3757119761","name":"Krónan","kind":"grocery","subkind":"supermarket","lat":64.06203,"lng":-21.96447,"cuisine":null,"hours":"Mo-Su 08:00-21:00","website":"https://kronan.is/","phone":"+354 585 7000","brand":"Krónan","town":"Hafnarfjörður"},{"id":"n3757631164","name":"Krónan","kind":"grocery","subkind":"supermarket","lat":63.44249,"lng":-20.27144,"cuisine":null,"hours":"Mo-Fr 09:00-20:00; Sa-Su 10:00-20:00","website":"https://kronan.is/","phone":"+354 585 7000","brand":"Krónan","town":"Vestmannaeyjar"},{"id":"n3769068467","name":"Bónus","kind":"grocery","subkind":"supermarket","lat":64.07751,"lng":-21.94209,"cuisine":null,"hours":"Mo-Su 10:00-21:00","website":"https://bonus.is/","phone":null,"brand":"Bónus","town":"Hafnarfjörður"},{"id":"n3814765882","name":"Uppskeran","kind":"grocery","subkind":"convenience","lat":64.13352,"lng":-21.86835,"cuisine":null,"hours":"Mo-Fr 11:00 - 18:00","website":null,"phone":null,"brand":null,"town":null},{"id":"n3839387862","name":"Krambúðin","kind":"grocery","subkind":"convenience","lat":64.13344,"lng":-21.91125,"cuisine":null,"hours":"Mo-Fr 08:00-23:30; Sa-Su 09:00-23:30","website":"https://www.krambudin.is","phone":null,"brand":null,"town":"Reykjavík"},{"id":"n391933971","name":"Tomatoes self service","kind":"grocery","subkind":"supermarket","lat":64.66388,"lng":-21.4081,"cuisine":null,"hours":null,"website":null,"phone":null,"brand":null,"town":null},{"id":"n4007220602","name":"Euro Market","kind":"grocery","subkind":"convenience","lat":64.14236,"lng":-21.91245,"cuisine":null,"hours":"Mo-Fr 09:00-21:00; Sa-Su 10:00-20:00","website":null,"phone":null,"brand":null,"town":null},{"id":"n4035421238","name":"Fisk Kompaní","kind":"grocery","subkind":"supermarket","lat":65.66941,"lng":-18.11043,"cuisine":null,"hours":null,"website":null,"phone":"+354 571 8080","brand":null,"town":"Akureyri"},{"id":"n4039853984","name":"Bónus","kind":"grocery","subkind":"supermarket","lat":64.00324,"lng":-22.55656,"cuisine":null,"hours":"Mo-Su 10:00-20:00","website":"https://bonus.is/","phone":null,"brand":"Bónus","town":"Reykjanesbær"},{"id":"n4077534523","name":"Kjörbúðin","kind":"grocery","subkind":"convenience","lat":64.07047,"lng":-22.65022,"cuisine":null,"hours":"Mo-Fr 09:00-19:00; Sa 10:00-17:00; Su 12:00-17:00","website":"https://kjorbudin.is","phone":"+354 422 7122","brand":null,"town":"Garður"},{"id":"n412698223","name":"Olís","kind":"grocery","subkind":"convenience","lat":63.97966,"lng":-22.54671,"cuisine":null,"hours":null,"website":null,"phone":null,"brand":null,"town":"Reykjanesbær"},{"id":"n415492565","name":"Kjörbúðin","kind":"grocery","subkind":"convenience","lat":63.83484,"lng":-20.40123,"cuisine":null,"hours":"Mo-Fr 09:00-20:00; Sa 09:00-18:00; Su 09:00-17:00","website":"https://kjorbudin.is","phone":"+354 522 5408","brand":null,"town":"Hella"},{"id":"n4178526374","name":"Nettó","kind":"grocery","subkind":"supermarket","lat":63.99334,"lng":-22.55058,"cuisine":null,"hours":"Mo-Su 07:30-24:00","website":null,"phone":null,"brand":"Nettó","town":"Reykjanesbær"},{"id":"n418770070","name":"Kassinn","kind":"grocery","subkind":"supermarket","lat":64.89742,"lng":-23.70913,"cuisine":null,"hours":"Mo-Th 09:00-18:00; Fr 09:00-20:00; Su 13:00-17:00; Sa 11:00-17:00","website":null,"phone":null,"brand":null,"town":null},{"id":"n4225364991","name":"Hríseyjarbúðin","kind":"grocery","subkind":"convenience","lat":65.9795,"lng":-18.37689,"cuisine":null,"hours":"Mo-Fr 11:00-18:00; Sa-Su 13:00-16:00","website":null,"phone":null,"brand":null,"town":"Hrísey"},{"id":"n4233511788","name":"Bónus","kind":"grocery","subkind":"supermarket","lat":64.11798,"lng":-21.79571,"cuisine":null,"hours":"Mo-Su 10:00-20:00","website":"https://www.bonus.is/","phone":null,"brand":"Bónus","town":"Reykjavík"},{"id":"n4236333490","name":"Kjörbúðin","kind":"grocery","subkind":"convenience","lat":66.19847,"lng":-15.33731,"cuisine":null,"hours":"Mo-Fr 09:00-18:00; Sa 10:00-17:00; Su 12:00-17:00","website":"https://kjorbudin.is","phone":"+354 468 1100","brand":"Kjörbúðin","town":"Þórshöfn"},{"id":"n4295035501","name":"Plúsmarkaðurinn","kind":"grocery","subkind":"convenience","lat":64.14154,"lng":-21.89492,"cuisine":null,"hours":"Mo-Fr 09:00-17:00; Sa 10:00-15:00; Su 11:00-14:00","website":null,"phone":null,"brand":null,"town":null},{"id":"n4301433334","name":"Dínó Sjoppa","kind":"grocery","subkind":"convenience","lat":64.12616,"lng":-21.8784,"cuisine":null,"hours":"Mo-Th, Su 11:00-23:00; Fr, Sa 11:00-00:00","website":"https://www.facebook.com/p/D%C3%8DN%C3%93-61559922615669/","phone":null,"brand":null,"town":null},{"id":"n430847358","name":"Bónus","kind":"grocery","subkind":"supermarket","lat":66.0604,"lng":-23.17428,"cuisine":null,"hours":"Mo-Su 10:00-20:00","website":null,"phone":"+354 456 3230","brand":"Bónus","town":"Ísafjörður"},{"id":"n4318759232","name":"Skaftárskáli","kind":"grocery","subkind":"convenience","lat":63.79392,"lng":-18.03991,"cuisine":null,"hours":"Mo-Su 09:00-22:00","website":null,"phone":null,"brand":null,"town":null},{"id":"n4328129593","name":"Fjölval","kind":"grocery","subkind":"supermarket","lat":65.59833,"lng":-24.00113,"cuisine":null,"hours":"Mo-Fr 09:30-18:30; Sa-Su 11:00-16:00","website":null,"phone":"+354 456 1545","brand":null,"town":null},{"id":"n4344978390","name":"Albina","kind":"grocery","subkind":"supermarket","lat":65.5931,"lng":-23.97786,"cuisine":null,"hours":null,"website":null,"phone":null,"brand":null,"town":null},{"id":"n440120535","name":"Kjörbúðin","kind":"grocery","subkind":"convenience","lat":65.65983,"lng":-20.28474,"cuisine":null,"hours":"Mo-Th 09:00-18:00; Fr 09:00-19:00; Sa-Su 10:00-17:00","website":"https://kjorbudin.is","phone":"+354 455 9020","brand":"Kjörbúðin","town":"Blönduós"},{"id":"n4426159272","name":"Krónan","kind":"grocery","subkind":"supermarket","lat":63.98133,"lng":-22.54434,"cuisine":null,"hours":"Mo-Su 08:00-21:00","website":null,"phone":"+354 585 7000","brand":"Krónan","town":"Reykjanesbær"},{"id":"n445050535","name":"Bónus","kind":"grocery","subkind":"supermarket","lat":65.66933,"lng":-18.11052,"cuisine":null,"hours":"Mo-Su 10:00-20:00","website":null,"phone":null,"brand":"Bónus","town":"Akureyri"},{"id":"n4451727338","name":"Húsafell verslun","kind":"grocery","subkind":"convenience","lat":64.69919,"lng":-20.8686,"cuisine":null,"hours":"Mo-Su 09:30-20:00","website":null,"phone":null,"brand":null,"town":null},{"id":"n445830928","name":"Kjötborg","kind":"grocery","subkind":"convenience","lat":64.14594,"lng":-21.95121,"cuisine":null,"hours":"Mo-Sa 11:15-18:30; Su 13:00-18:00","website":null,"phone":null,"brand":null,"town":null},{"id":"n448541787","name":"10-11","kind":"grocery","subkind":"convenience","lat":64.14282,"lng":-21.92842,"cuisine":null,"hours":"Mo-Fr 08:00-23:30; Sa-Su,PH 09:00-23:30","website":"https://www.10-11.is","phone":null,"brand":"10-11","town":"Reykjavík"},{"id":"n4506905893","name":"Bónus","kind":"grocery","subkind":"supermarket","lat":64.14457,"lng":-21.92282,"cuisine":null,"hours":"Mo-Su 10:00-23:00","website":"https://www.bonus.is/","phone":null,"brand":"Bónus","town":"Reykjavík"},{"id":"n451709617","name":"Krónan","kind":"grocery","subkind":"supermarket","lat":64.12515,"lng":-21.81498,"cuisine":null,"hours":"Mo-Su 08:00-21:00","website":"https://kronan.is/","phone":"+354 585 7000","brand":"Krónan","town":"Reykjavík"},{"id":"n477529741","name":"Nesbakki","kind":"grocery","subkind":"supermarket","lat":65.14867,"lng":-13.66801,"cuisine":null,"hours":null,"website":null,"phone":null,"brand":null,"town":null},{"id":"n483740387","name":"Tónspil","kind":"grocery","subkind":"hifi","lat":65.14782,"lng":-13.69481,"cuisine":null,"hours":null,"website":null,"phone":null,"brand":null,"town":null},{"id":"n483740394","name":"Kjörbúðin","kind":"grocery","subkind":"convenience","lat":65.14733,"lng":-13.69239,"cuisine":null,"hours":"Mo-Fr 09:00-18:00; Sa 10:00-17:00; Su 12:00-17:00","website":"https://kjorbudin.is","phone":"+354 477 1185","brand":null,"town":"Neskaupstaður"},{"id":"n4888336128","name":"Family Market","kind":"grocery","subkind":"convenience","lat":64.1317,"lng":-21.87438,"cuisine":null,"hours":null,"website":null,"phone":null,"brand":null,"town":"Reykjavík"},{"id":"n4990094729","name":"N1","kind":"grocery","subkind":"convenience","lat":66.07462,"lng":-23.12332,"cuisine":null,"hours":"Mo-Fr 07:30-22:00; Sa 09:00-22:00; Su 10:00-22:00","website":"https://n1.is/","phone":"+354 456 3574","brand":null,"town":"Ísafjörður"},{"id":"n4990146322","name":"Nettó","kind":"grocery","subkind":"supermarket","lat":66.07355,"lng":-23.12122,"cuisine":null,"hours":"Mo-Su 10:00-20:00","website":"https://www.netto.is/","phone":"+354 456 5460","brand":"Nettó","town":"Ísafjörður"},{"id":"n5009686664","name":"Nesti","kind":"grocery","subkind":"convenience","lat":64.06655,"lng":-21.93869,"cuisine":null,"hours":null,"website":null,"phone":null,"brand":null,"town":null},{"id":"n5009885238","name":"N1","kind":"grocery","subkind":"convenience","lat":65.26059,"lng":-14.40801,"cuisine":null,"hours":"Mo-Su 08:00-23:00","website":"https://n1.is/","phone":"+354 440 1450","brand":null,"town":"Egilsstaðir"},{"id":"n5051280886","name":"Mix Market","kind":"grocery","subkind":"convenience","lat":64.13988,"lng":-21.88438,"cuisine":null,"hours":null,"website":null,"phone":null,"brand":null,"town":null},{"id":"n5079448821","name":"Krónan","kind":"grocery","subkind":"supermarket","lat":63.41745,"lng":-18.99909,"cuisine":null,"hours":"Mo-Su 09:00-21:00","website":null,"phone":"+354 585 7000","brand":"Krónan","town":"Vík"},{"id":"n5472681441","name":"Asian Supermarket","kind":"grocery","subkind":"convenience","lat":64.12866,"lng":-21.86499,"cuisine":null,"hours":null,"website":null,"phone":null,"brand":null,"town":null},{"id":"n5749897388","name":"Krónan","kind":"grocery","subkind":"supermarket","lat":64.09819,"lng":-21.90855,"cuisine":null,"hours":"Mo-Su 08:00-21:00","website":"https://kronan.is/","phone":"+354 585 7000","brand":"Krónan","town":"Garðabær"},{"id":"n5863033325","name":"SAM","kind":"grocery","subkind":"supermarket","lat":66.06043,"lng":-23.17378,"cuisine":null,"hours":"Mo-Th 11:00-18:30; Fr 10:00-19:00; Sa 10:00-18:00; Su 11:00-18:00","website":null,"phone":null,"brand":null,"town":null},{"id":"n60743085","name":"Bónus","kind":"grocery","subkind":"supermarket","lat":65.69203,"lng":-18.10923,"cuisine":null,"hours":"Mo-Su 10:00-20:00","website":"https://bonus.is/","phone":null,"brand":"Bónus","town":"Akureyri"},{"id":"n6264292343","name":"Hýalín","kind":"grocery","subkind":"convenience","lat":64.14618,"lng":-21.93304,"cuisine":null,"hours":"Mo-Sa 11:00-18:00","website":"https://www.hyalin.is","phone":"+354 519 7171","brand":null,"town":"Reykjavík"},{"id":"n626580415","name":"Krónan","kind":"grocery","subkind":"supermarket","lat":65.03214,"lng":-14.21954,"cuisine":null,"hours":"Mo-Fr 10:00-19:00; Sa,Su 11:00-17:00","website":"https://kronan.is","phone":"+354 585 7000","brand":"Krónan","town":"Reyðarfjörður"},{"id":"n6447396401","name":"Búðin","kind":"grocery","subkind":"supermarket","lat":65.5272,"lng":-13.8167,"cuisine":null,"hours":"Mo, Tu, Th, Fr 13:00-17:00","website":null,"phone":null,"brand":null,"town":null},{"id":"n6527943321","name":"Nettó","kind":"grocery","subkind":"supermarket","lat":64.13858,"lng":-21.89103,"cuisine":null,"hours":"Mo-Su 07:30-24:00","website":null,"phone":null,"brand":"Nettó","town":"Reykjavík"},{"id":"n6582740114","name":"Olís","kind":"grocery","subkind":"convenience","lat":63.94385,"lng":-21.00796,"cuisine":null,"hours":"24/7","website":null,"phone":null,"brand":null,"town":"Selfoss"},{"id":"n6615988785","name":"Vegamót","kind":"grocery","subkind":"convenience","lat":65.68553,"lng":-23.60088,"cuisine":null,"hours":"Mo-Fr 11:00-21:00; Sa,Su 12:00-21:00","website":null,"phone":null,"brand":null,"town":null},{"id":"n6981239818","name":"Krónan","kind":"grocery","subkind":"supermarket","lat":64.09733,"lng":-21.82653,"cuisine":null,"hours":"Mo-Su 08:00-21:00","website":"https://kronan.is/","phone":"+354 585 7000","brand":"Krónan","town":"Reykjavík"},{"id":"n6981239819","name":"Krónan","kind":"grocery","subkind":"supermarket","lat":64.07646,"lng":-21.94186,"cuisine":null,"hours":"Mo-Su 08:00-21:00","website":"https://kronan.is","phone":"+354 585 7000","brand":"Krónan","town":"Hafnarfjörður"},{"id":"n6981239901","name":"Krónan","kind":"grocery","subkind":"supermarket","lat":63.74994,"lng":-20.23265,"cuisine":null,"hours":"Mo-Su 09:00-19:00","website":"https://kronan.is","phone":"+354 585 7000","brand":"Krónan","town":"Hvolsvöllur"},{"id":"n6981239902","name":"Krónan","kind":"grocery","subkind":"supermarket","lat":64.1302,"lng":-21.87249,"cuisine":null,"hours":"Mo-Su 08:00-21:00","website":"https://kronan.is/","phone":"+354 585 7000","brand":"Krónan","town":"Reykjavík"},{"id":"n7159546999","name":"Bónus","kind":"grocery","subkind":"supermarket","lat":64.16573,"lng":-21.69904,"cuisine":null,"hours":"Mo-Su 09:00-21:00","website":"https://bonus.is/","phone":null,"brand":"Bónus","town":"Mosfellsbær"},{"id":"n7239757822","name":"City Market","kind":"grocery","subkind":"convenience","lat":64.11414,"lng":-21.89296,"cuisine":null,"hours":null,"website":null,"phone":null,"brand":null,"town":null},{"id":"n793762274","name":"Kjörbúðin","kind":"grocery","subkind":"convenience","lat":66.15076,"lng":-18.91058,"cuisine":null,"hours":"Mo-Fr 09:00-18:00; Sa 10:00-17:00; Su 12:00-17:00","website":"https://kjorbudin.is","phone":"+354 467 1201","brand":null,"town":"Siglufjörður"},{"id":"n7942617513","name":"Euro Market","kind":"grocery","subkind":"convenience","lat":64.11113,"lng":-21.85089,"cuisine":null,"hours":"Mo-Fr 10:00-21:00; Sa-Su 10:00-20:00","website":null,"phone":null,"brand":null,"town":null},{"id":"n7993167472","name":"Krónan","kind":"grocery","subkind":"supermarket","lat":64.14563,"lng":-21.93409,"cuisine":null,"hours":"Mo-Su 08:00-21:00","website":null,"phone":"+354 585 7000","brand":"Krónan","town":"Reykjavík"},{"id":"n8011272290","name":"Krónan","kind":"grocery","subkind":"supermarket","lat":64.04632,"lng":-21.98398,"cuisine":null,"hours":"Mo-Su 08:00-21:00","website":null,"phone":"+354 585 7000","brand":"Krónan","town":"Hafnarfjörður"},{"id":"n8011272291","name":"Nettó","kind":"grocery","subkind":"supermarket","lat":64.09949,"lng":-21.83124,"cuisine":null,"hours":"Mo-Su 07:30-24:00","website":null,"phone":null,"brand":"Nettó","town":"Reykjavík"},{"id":"n8014883929","name":"Spar","kind":"grocery","subkind":"convenience","lat":64.14453,"lng":-21.91858,"cuisine":null,"hours":"24/7","website":"https://sparisland.is","phone":null,"brand":"Spar","town":"Reykjavík"},{"id":"n817319618","name":"Olís - Varmahlíð","kind":"grocery","subkind":"convenience","lat":65.55352,"lng":-19.44672,"cuisine":null,"hours":null,"website":null,"phone":"+354 455 4680","brand":null,"town":"Varmahlíð"},{"id":"n817319640","name":"Corner Market","kind":"grocery","subkind":"convenience","lat":64.14566,"lng":-21.92943,"cuisine":null,"hours":"24/7","website":null,"phone":null,"brand":null,"town":"Reykjavík"},{"id":"n8235618207","name":"Nettó","kind":"grocery","subkind":"supermarket","lat":64.09384,"lng":-21.85913,"cuisine":null,"hours":"Mo-Su 07:30-24:00","website":null,"phone":null,"brand":"Nettó","town":"Kópavogur"},{"id":"n830944310","name":"Gvendarkjör","kind":"grocery","subkind":"supermarket","lat":63.79023,"lng":-18.04784,"cuisine":null,"hours":"Mo-Fr 11:30-18:00; Sa 10:00-14:00","website":"https://www.facebook.com/gvendarkjor/","phone":null,"brand":null,"town":null},{"id":"n8345063580","name":"Björki","kind":"grocery","subkind":"convenience","lat":63.75183,"lng":-20.23528,"cuisine":null,"hours":null,"website":null,"phone":null,"brand":null,"town":null},{"id":"n8420837950","name":"Videomarkaðurinn","kind":"grocery","subkind":"convenience","lat":64.11233,"lng":-21.90327,"cuisine":null,"hours":"Mo-Th 09:00-23:30, Sa 10:00-01:00, Su 12:00-23:30, Fr 09:00-01:00","website":"https://www.facebook.com/videomarkadurinn","phone":"+354 554 6777","brand":null,"town":null},{"id":"n846980679","name":"Krambúðin","kind":"grocery","subkind":"convenience","lat":64.21687,"lng":-20.73401,"cuisine":null,"hours":"Mo-Fr 09:00-19:00; Sa-Su 10:00-19:00","website":"https://www.krambudin.is","phone":null,"brand":null,"town":"Laugarvatn"},{"id":"n847673689","name":"Krambúðin","kind":"grocery","subkind":"convenience","lat":65.10807,"lng":-21.76282,"cuisine":null,"hours":"Mo-Fr 08:00-20:00; Sa-Su 10:00-19:00","website":"https://www.krambudin.is","phone":null,"brand":null,"town":"Búðardalur"},{"id":"n8479250983","name":"Nettó","kind":"grocery","subkind":"supermarket","lat":64.15455,"lng":-21.952,"cuisine":null,"hours":"Mo-Su 07:30-24:00","website":null,"phone":null,"brand":"Nettó","town":"Reykjavík"},{"id":"n8563226496","name":"Plus Market","kind":"grocery","subkind":"convenience","lat":64.10527,"lng":-21.81517,"cuisine":null,"hours":null,"website":null,"phone":null,"brand":null,"town":null},{"id":"n8787353060","name":"Ljómalind","kind":"grocery","subkind":"supermarket","lat":64.54327,"lng":-21.91092,"cuisine":null,"hours":"Mo-Su 10:00-18:00","website":null,"phone":null,"brand":null,"town":null},{"id":"n8879657940","name":"Mini Market","kind":"grocery","subkind":"supermarket","lat":64.1107,"lng":-21.85094,"cuisine":null,"hours":"Mo-Sa 09:00-20:00; Su 10:00-19:00","website":"https://minimarket.is/","phone":"+354 571 0607","brand":null,"town":"Kópavogur"},{"id":"n8879657941","name":"Mini Market","kind":"grocery","subkind":"supermarket","lat":63.99814,"lng":-22.54951,"cuisine":null,"hours":"Mo-Sa 10:00-20:00; Su 12:00-17:00","website":"https://minimarket.is/","phone":"+354 435 0107","brand":null,"town":"Keflavík"},{"id":"n8926783504","name":"Pétursbúð","kind":"grocery","subkind":"convenience","lat":64.14954,"lng":-21.94639,"cuisine":null,"hours":"Mo-Fr 09:00-22:00; Su,PH 10:00-22:00","website":null,"phone":null,"brand":null,"town":"Reykjavík"},{"id":"n897371247","name":"Fossbúð","kind":"grocery","subkind":"convenience","lat":63.52688,"lng":-19.50908,"cuisine":null,"hours":null,"website":null,"phone":null,"brand":null,"town":null},{"id":"n9286812370","name":"Bónus","kind":"grocery","subkind":"supermarket","lat":64.15363,"lng":-21.95147,"cuisine":null,"hours":"Mo-Su 10:00-21:00","website":"https://www.bonus.is/","phone":null,"brand":"Bónus","town":"Reykjavík"},{"id":"n9286812371","name":"Bónus","kind":"grocery","subkind":"supermarket","lat":64.13129,"lng":-21.8693,"cuisine":null,"hours":"Mo-Su 10:00-21:00","website":"https://bonus.is/","phone":null,"brand":"Bónus","town":"Reykjavík"},{"id":"n9286812379","name":"Bónus","kind":"grocery","subkind":"supermarket","lat":64.15047,"lng":-21.78941,"cuisine":null,"hours":"Mo-Su 09:00-21:00","website":null,"phone":null,"brand":"Bónus","town":"Reykjavík"},{"id":"n9286847420","name":"Bónus","kind":"grocery","subkind":"supermarket","lat":63.44186,"lng":-20.27175,"cuisine":null,"hours":"Mo-Su 10:00-19:00","website":"https://www.bonus.is","phone":null,"brand":"Bónus","town":"Vestmannaeyjar"},{"id":"n9286935533","name":"Bónus","kind":"grocery","subkind":"supermarket","lat":64.13511,"lng":-21.84623,"cuisine":null,"hours":"Mo-Su 10:00-19:00","website":"https://www.bonus.is/","phone":null,"brand":"Bónus","town":"Reykjavík"},{"id":"n9297740425","name":"Nettó","kind":"grocery","subkind":"supermarket","lat":64.1635,"lng":-21.69103,"cuisine":null,"hours":"Mo-Su 07:30-24:00","website":null,"phone":null,"brand":"Nettó","town":"Mosfellsbær"},{"id":"n9494983262","name":"Nettó","kind":"grocery","subkind":"supermarket","lat":64.10859,"lng":-21.84256,"cuisine":null,"hours":"24/7","website":null,"phone":null,"brand":"Nettó","town":"Reykjavík"},{"id":"n9522271453","name":"Kaupfélag Steingrímsfjarðar","kind":"grocery","subkind":"supermarket","lat":65.68932,"lng":-21.4423,"cuisine":null,"hours":"Mo-Th 09:30-10:30, 13:00-17:00; Fr 09:30-10:30, 13:00-18:00","website":null,"phone":null,"brand":null,"town":null},{"id":"n9755777555","name":"Krónan","kind":"grocery","subkind":"supermarket","lat":64.14569,"lng":-21.89816,"cuisine":null,"hours":"Mo-Su 08:00-21:00","website":"https://kronan.is/","phone":null,"brand":"Krónan","town":"Reykjavík"},{"id":"n9883521270","name":"Krónan","kind":"grocery","subkind":"supermarket","lat":65.68909,"lng":-18.0987,"cuisine":null,"hours":"Mo-Su 08:00-21:00","website":null,"phone":null,"brand":"Krónan","town":"Akureyri"},{"id":"n9903829617","name":"N1","kind":"grocery","subkind":"convenience","lat":63.99616,"lng":-21.1926,"cuisine":null,"hours":"Mo-Fr 07:30-19:30; Sa-Su 09:00-19:30","website":"https://n1.is/","phone":"+354 440 1100","brand":null,"town":"Hveragerði"},{"id":"n9906743517","name":"Corner Market","kind":"grocery","subkind":"convenience","lat":64.14661,"lng":-21.93316,"cuisine":null,"hours":null,"website":null,"phone":null,"brand":null,"town":"Reykjavík"},{"id":"n9907457617","name":"Corner Market","kind":"grocery","subkind":"convenience","lat":64.14794,"lng":-21.94198,"cuisine":null,"hours":"Su-We 06:00-03:00, Th-Sa 00:00+","website":null,"phone":null,"brand":null,"town":"Reykjavík"},{"id":"n998922740","name":"Nettó","kind":"grocery","subkind":"supermarket","lat":66.03938,"lng":-17.34295,"cuisine":null,"hours":"Mo-Su 10:00-19:00","website":null,"phone":"+354 464 1750","brand":"Nettó","town":"Húsavík"},{"id":"n998927789","name":"Krambúðin","kind":"grocery","subkind":"convenience","lat":65.70082,"lng":-21.68589,"cuisine":null,"hours":"Mo-Fr 09:00-19:00; Sa-Su 10:00-18:00","website":"https://www.krambudin.is","phone":null,"brand":null,"town":"Hólmavík"},{"id":"w108371048","name":"Frú Lauga","kind":"grocery","subkind":"convenience","lat":64.14824,"lng":-21.8838,"cuisine":null,"hours":"Mo-Fr 11:00-18:00; Sa 11:00-16:00","website":"http://www.frulauga.is/","phone":null,"brand":null,"town":null},{"id":"w109295153","name":"Rangá","kind":"grocery","subkind":"convenience","lat":64.13986,"lng":-21.85735,"cuisine":null,"hours":null,"website":null,"phone":null,"brand":null,"town":null},{"id":"w109666096","name":"Grand Hotel Reykjavik","kind":"grocery","subkind":"spa","lat":64.14232,"lng":-21.89129,"cuisine":null,"hours":null,"website":"https://www.islandshotel.is/hotels-in-iceland/grand-hotel-reykjavik","phone":"+354 514 8000","brand":null,"town":null},{"id":"w169155921","name":"N1","kind":"grocery","subkind":"convenience","lat":64.91508,"lng":-23.8843,"cuisine":null,"hours":null,"website":null,"phone":null,"brand":null,"town":"Hellissandur"},{"id":"w172051601","name":"Fjarðarkaup","kind":"grocery","subkind":"supermarket","lat":64.08229,"lng":-21.94044,"cuisine":null,"hours":"Mo-We 09:00-18:00; Th 09:00-18:30; Fr 09:00-19:00; Sa 10:00-16:00; Su off","website":"https://fjardarkaup.is/","phone":"+354 555 3500","brand":null,"town":"Hafnarfjörður"},{"id":"w219454261","name":"Hlíðarkaup","kind":"grocery","subkind":"supermarket","lat":65.73481,"lng":-19.64725,"cuisine":null,"hours":"Mo-Sa 09:00-22:00; Su 10:00-22:00","website":null,"phone":null,"brand":null,"town":"Sauðárkrókur"},{"id":"w219769752","name":"Shellskálinn","kind":"grocery","subkind":"convenience","lat":63.99555,"lng":-21.18522,"cuisine":null,"hours":"Mo-Fr 07:00-23:00; Sa 08:00-23:00; Su 09:00-23:00","website":null,"phone":null,"brand":null,"town":null}]}